City_ID,City,Lat,Lng,Max Temp,Humidity,Cloudiness,Wind Speed,Country,Date
0,belo sur tsiribihina,-19.7,44.55,300.46,79,23,"{'speed': 0.6, 'deg': 266, 'gust': 1.36}",MG,['dt']
1,mata-utu,-13.2816,-176.1745,301.1,76,100,"{'speed': 6.36, 'deg': 210, 'gust': 6.57}",WF,['dt']
2,port lincoln,-34.7333,135.8667,288.99,96,100,"{'speed': 8.85, 'deg': 102, 'gust': 13.69}",AU,['dt']
3,port mathurin,-19.6833,63.4167,299.55,75,55,"{'speed': 3.76, 'deg': 88, 'gust': 3.98}",MU,['dt']
4,ancud,-41.8697,-73.8203,288.32,74,100,"{'speed': 4.81, 'deg': 251, 'gust': 6.42}",CL,['dt']
5,isafjordur,66.0755,-23.124,271.17,74,40,"{'speed': 1.54, 'deg': 0}",IS,['dt']
6,bakanas,44.8081,76.2772,267.43,56,100,"{'speed': 2.83, 'deg': 30, 'gust': 3.49}",KZ,['dt']
7,coahuayana de hidalgo,18.7,-103.6583,304.18,47,100,"{'speed': 2.13, 'deg': 221, 'gust': 1.97}",MX,['dt']
8,adamstown,-25.066,-130.1015,294.07,60,0,"{'speed': 4.45, 'deg': 228, 'gust': 4.23}",PN,['dt']
9,la ronge,55.1001,-105.2842,261.29,79,40,"{'speed': 3.09, 'deg': 150}",CA,['dt']
10,murudeshwara,14.0943,74.4845,299.82,81,100,"{'speed': 2.04, 'deg': 39, 'gust': 2.25}",IN,['dt']
11,hithadhoo,-0.6,73.0833,301.01,73,100,"{'speed': 0.98, 'deg': 108, 'gust': 0.77}",MV,['dt']
12,formosa do rio preto,-11.0483,-45.1931,307.42,34,30,"{'speed': 1.91, 'deg': 96, 'gust': 3.19}",BR,['dt']
13,papatowai,-46.5619,169.4708,283.22,63,20,"{'speed': 2.83, 'deg': 335, 'gust': 5.74}",NZ,['dt']
14,kiunga,-6.1219,141.2906,295.75,100,100,"{'speed': 1.53, 'deg': 357, 'gust': 7.38}",PG,['dt']
15,kodiak,57.79,-152.4072,273.88,100,100,"{'speed': 1.54, 'deg': 240}",US,['dt']
16,albany,42.6001,-73.9662,285.9,90,100,"{'speed': 0.89, 'deg': 273, 'gust': 3.13}",US,['dt']
17,suva,-18.1416,178.4415,291.86,94,20,"{'speed': 1.54, 'deg': 320}",FJ,['dt']
18,shalqar,47.8333,59.6,258.51,50,0,"{'speed': 8.26, 'deg': 57, 'gust': 10.73}",KZ,['dt']
19,grytviken,-54.2811,-36.5092,279.12,82,100,"{'speed': 6.33, 'deg': 312, 'gust': 8.51}",GS,['dt']
20,ulimang,7.6242,134.6421,299.38,79,100,"{'speed': 6.4, 'deg': 52, 'gust': 7.48}",PW,['dt']
21,blackmans bay,-43.0167,147.3167,283.56,78,95,"{'speed': 0.45, 'deg': 23, 'gust': 0.89}",AU,['dt']
22,weno,7.4515,151.8468,301.12,78,100,"{'speed': 3.6, 'deg': 50}",FM,['dt']
23,russkaya polyana,49.417,31.9201,273.79,98,100,"{'speed': 2.68, 'deg': 135, 'gust': 5.58}",UA,['dt']
24,tiksi,71.6872,128.8694,249.57,99,100,"{'speed': 1.7, 'deg': 324, 'gust': 2.11}",RU,['dt']
25,port-aux-francais,-49.35,70.2167,276.62,76,41,"{'speed': 10.26, 'deg': 233, 'gust': 11.28}",TF,['dt']
26,tazacorte,28.629,-17.9293,297.12,51,20,"{'speed': 2.68, 'deg': 82, 'gust': 4.02}",ES,['dt']
27,galle,6.0367,80.217,297.52,90,98,"{'speed': 1.43, 'deg': 77, 'gust': 1.58}",LK,['dt']
28,edinburgh of the seven seas,-37.0676,-12.3116,286.57,69,100,"{'speed': 6.34, 'deg': 121, 'gust': 6.19}",SH,['dt']
29,carutapera,-1.195,-46.02,302.67,65,75,"{'speed': 4.59, 'deg': 72, 'gust': 6.85}",BR,['dt']
30,esmeraldas,-19.7625,-44.3139,303.73,47,88,"{'speed': 4.97, 'deg': 63, 'gust': 6.23}",BR,['dt']
31,sao joao da barra,-21.6403,-41.0511,298.2,73,49,"{'speed': 3.89, 'deg': 120, 'gust': 4.21}",BR,['dt']
32,kuanda,56.3161,116.0806,236.71,95,55,"{'speed': 0.36, 'deg': 179, 'gust': 0.84}",RU,['dt']
33,rio grande,-32.035,-52.0986,299.21,82,73,"{'speed': 8.68, 'deg': 64, 'gust': 11.09}",BR,['dt']
34,cambridge,43.3601,-80.3127,277.57,69,100,"{'speed': 5.14, 'deg': 270}",CA,['dt']
35,iqaluit,63.7506,-68.5145,268.0,85,100,"{'speed': 4.63, 'deg': 50}",CA,['dt']
36,behshahr,36.6923,53.5526,284.12,47,0,"{'speed': 2.23, 'deg': 225, 'gust': 2.6}",IR,['dt']
37,san antonio de pale,-1.4014,5.6325,300.77,78,100,"{'speed': 5.37, 'deg': 199, 'gust': 5.5}",GQ,['dt']
38,lompoc,34.6391,-120.4579,294.14,44,0,"{'speed': 3.09, 'deg': 80}",US,['dt']
39,vernon,50.2581,-119.2691,276.65,88,100,"{'speed': 4.12, 'deg': 100}",CA,['dt']
40,kill devil hills,36.0307,-75.676,293.16,84,100,"{'speed': 7.2, 'deg': 200, 'gust': 9.77}",US,['dt']
41,stanley,54.868,-1.6985,279.97,94,40,"{'speed': 3.6, 'deg': 270}",GB,['dt']
42,alta,69.9689,23.2717,263.74,62,0,"{'speed': 7.72, 'deg': 160}",NO,['dt']
43,olonkinbyen,70.9221,-8.7187,267.33,53,22,"{'speed': 1.41, 'deg': 183, 'gust': 1.68}",SJ,['dt']
44,acarau,-2.8856,-40.12,302.54,61,39,"{'speed': 8.28, 'deg': 80, 'gust': 9.32}",BR,['dt']
45,west island,-12.1568,96.8225,299.14,83,40,"{'speed': 4.63, 'deg': 120}",CC,['dt']
46,kingston,17.997,-76.7936,305.51,58,20,"{'speed': 9.26, 'deg': 90}",JM,['dt']
47,an nuhud,12.7,28.4333,298.43,16,70,"{'speed': 3.79, 'deg': 11, 'gust': 3.85}",SD,['dt']
48,polyarnyy,69.1989,33.4478,262.4,85,100,"{'speed': 8.77, 'deg': 195, 'gust': 14.4}",RU,['dt']
49,vilyuchinsk,52.9306,158.4028,274.3,100,100,"{'speed': 7.66, 'deg': 117, 'gust': 14.29}",RU,['dt']
50,namsos,64.4662,11.4957,271.18,86,52,"{'speed': 3.6, 'deg': 70}",NO,['dt']
51,kievka,50.2619,71.5514,250.53,91,9,"{'speed': 2.4, 'deg': 26, 'gust': 3.63}",KZ,['dt']
52,okha,53.5739,142.9478,253.81,85,100,"{'speed': 10.51, 'deg': 262, 'gust': 14.52}",RU,['dt']
53,puerto natales,-51.7236,-72.4875,284.4,62,75,"{'speed': 8.23, 'deg': 210}",CL,['dt']
54,georgetown,5.4112,100.3354,300.11,95,20,"{'speed': 1.03, 'deg': 0}",MY,['dt']
55,invercargill,-46.4,168.35,281.36,68,31,"{'speed': 3.28, 'deg': 343, 'gust': 6.74}",NZ,['dt']
56,benguela,-12.5763,13.4055,299.72,81,59,"{'speed': 3.15, 'deg': 229, 'gust': 3.4}",AO,['dt']
57,longyearbyen,78.2186,15.6401,273.06,69,75,"{'speed': 6.69, 'deg': 110}",SJ,['dt']
58,cabo san lucas,22.8909,-109.9124,301.35,66,0,"{'speed': 2.63, 'deg': 308, 'gust': 3.67}",MX,['dt']
59,avarua,-21.2078,-159.775,299.18,83,75,"{'speed': 11.32, 'deg': 80}",CK,['dt']
60,nagqu,31.5,92.0,262.29,42,100,"{'speed': 0.57, 'deg': 218, 'gust': 0.63}",CN,['dt']
61,najran,17.4924,44.1277,288.51,35,4,"{'speed': 0.96, 'deg': 123, 'gust': 1.04}",SA,['dt']
62,waitangi,-43.9535,-176.5597,285.27,88,0,"{'speed': 0.45, 'deg': 233, 'gust': 1.79}",NZ,['dt']
63,margaret river,-33.95,115.0667,287.38,55,0,"{'speed': 5.95, 'deg': 86, 'gust': 12.57}",AU,['dt']
64,thompson,55.7435,-97.8558,257.24,85,75,"{'speed': 2.06, 'deg': 210}",CA,['dt']
65,port elizabeth,-33.918,25.5701,291.54,84,0,"{'speed': 1.54, 'deg': 160}",ZA,['dt']
66,puerto ayora,-0.7393,-90.3518,302.13,76,31,"{'speed': 4.35, 'deg': 162, 'gust': 4.15}",EC,['dt']
67,aasiaat,68.7098,-52.8699,267.44,95,100,"{'speed': 7.44, 'deg': 141, 'gust': 11.47}",GL,['dt']
68,mweka,-4.85,21.5667,294.6,87,100,"{'speed': 1.05, 'deg': 15, 'gust': 1.1}",CD,['dt']
69,yellowknife,62.456,-114.3525,262.82,99,100,"{'speed': 6.69, 'deg': 350}",CA,['dt']
70,hawaiian paradise park,19.5933,-154.9731,297.61,98,100,"{'speed': 3.09, 'deg': 220}",US,['dt']
71,la passe,45.5549,-0.8967,288.28,94,100,"{'speed': 9.92, 'deg': 258, 'gust': 18.37}",FR,['dt']
72,pass christian,30.3158,-89.2475,287.18,62,20,"{'speed': 8.75, 'deg': 340, 'gust': 11.83}",US,['dt']
73,labytnangi,66.6572,66.4183,243.3,100,98,"{'speed': 2.64, 'deg': 236, 'gust': 4.22}",RU,['dt']
74,victoria,22.2855,114.1577,297.25,91,76,"{'speed': 4.02, 'deg': 90}",HK,['dt']
75,klyuchi,52.2667,79.1667,252.24,85,22,"{'speed': 2.25, 'deg': 67, 'gust': 2.91}",RU,['dt']
76,laguna,38.421,-121.4238,287.95,83,0,"{'speed': 1.54, 'deg': 320}",US,['dt']
77,yarmouth,41.7057,-70.2286,289.41,92,75,"{'speed': 4.92, 'deg': 188, 'gust': 8.94}",US,['dt']
78,iskateley,67.6803,53.1512,250.38,91,96,"{'speed': 4.92, 'deg': 195, 'gust': 11.18}",RU,['dt']
79,tan-tan,28.438,-11.1032,300.12,19,0,"{'speed': 2.57, 'deg': 90}",MA,['dt']
80,tura,25.5198,90.2201,287.23,52,0,"{'speed': 1.52, 'deg': 48, 'gust': 1.4}",IN,['dt']
81,ushuaia,-54.8,-68.3,282.96,50,0,"{'speed': 9.26, 'deg': 240}",AR,['dt']
82,paita,-5.0892,-81.1144,297.99,69,1,"{'speed': 6.88, 'deg': 210, 'gust': 6.77}",PE,['dt']
83,vadso,70.0744,29.7487,262.24,79,20,"{'speed': 10.29, 'deg': 210}",NO,['dt']
84,mayfield,36.7417,-88.6367,281.33,69,7,"{'speed': 5.11, 'deg': 317, 'gust': 6.63}",US,['dt']
85,bethel,41.3712,-73.414,287.22,91,100,"{'speed': 2.57, 'deg': 150}",US,['dt']
86,keflavik,64.0049,-22.5624,275.39,75,75,"{'speed': 5.14, 'deg': 150}",IS,['dt']
87,jieshi,22.8134,115.8257,294.96,87,100,"{'speed': 2.44, 'deg': 88, 'gust': 2.95}",CN,['dt']
88,keelung,25.1283,121.7419,298.18,91,80,"{'speed': 0.85, 'deg': 207, 'gust': 1.1}",TW,['dt']
89,college,64.8569,-147.8028,251.98,70,75,"{'speed': 1.54, 'deg': 30}",US,['dt']
90,zag,46.9441,99.165,251.6,94,36,"{'speed': 0.65, 'deg': 57, 'gust': 0.93}",MN,['dt']
91,fortuna,40.5982,-124.1573,284.78,85,0,"{'speed': 1.79, 'deg': 171, 'gust': 4.47}",US,['dt']
92,zaoyang,32.1272,112.7542,274.65,86,100,"{'speed': 9.79, 'deg': 13, 'gust': 15.49}",CN,['dt']
93,petropavlovsk-kamchatsky,53.0452,158.6483,273.48,95,100,"{'speed': 8, 'deg': 110}",RU,['dt']
94,sandnessjoen,66.0217,12.6316,273.21,59,75,"{'speed': 2.06, 'deg': 40}",NO,['dt']
95,bredasdorp,-34.5322,20.0403,290.54,72,0,"{'speed': 4.65, 'deg': 88, 'gust': 7.87}",ZA,['dt']
96,kamloops,50.6665,-120.3192,276.8,82,100,"{'speed': 4.12, 'deg': 120}",CA,['dt']
97,napili-honokowai,20.9708,-156.6705,299.36,85,34,"{'speed': 6.12, 'deg': 79, 'gust': 6.71}",US,['dt']
98,ilulissat,69.2167,-51.1,269.16,74,100,"{'speed': 8.23, 'deg': 100}",GL,['dt']
99,pamandzi,-12.7967,45.2794,302.03,79,40,"{'speed': 7.2, 'deg': 50}",YT,['dt']
100,nema,57.5067,50.5011,248.37,96,100,"{'speed': 2.76, 'deg': 107, 'gust': 7.52}",RU,['dt']
101,punta arenas,-53.15,-70.9167,285.21,32,20,"{'speed': 10.8, 'deg': 250}",CL,['dt']
102,humaita,-7.5061,-63.0208,308.99,39,77,"{'speed': 0.92, 'deg': 101, 'gust': 1.98}",BR,['dt']
103,piterka,50.6803,47.4454,264.42,53,81,"{'speed': 5.99, 'deg': 88, 'gust': 10.67}",RU,['dt']
104,markovo,57.3206,107.0881,236.24,100,68,"{'speed': 0.88, 'deg': 209, 'gust': 0.83}",RU,['dt']
105,severnoye,56.3491,78.3619,248.14,98,100,"{'speed': 2.68, 'deg': 63, 'gust': 6.26}",RU,['dt']
106,east london,-33.0153,27.9116,290.67,94,75,"{'speed': 3.09, 'deg': 260}",ZA,['dt']
107,bayindir,38.2174,27.6474,283.9,71,100,"{'speed': 1.18, 'deg': 76, 'gust': 1.17}",TR,['dt']
108,ushtobe,45.2514,77.9838,267.05,75,100,"{'speed': 2.88, 'deg': 58, 'gust': 4.23}",KZ,['dt']
109,usinsk,65.9939,57.5281,244.3,100,100,"{'speed': 0.45, 'deg': 272, 'gust': 0.45}",RU,['dt']
110,kununurra,-15.7667,128.7333,297.14,88,75,"{'speed': 4.12, 'deg': 240}",AU,['dt']
111,udachny,66.4167,112.4,243.95,82,100,"{'speed': 5.18, 'deg': 300, 'gust': 9.87}",RU,['dt']
112,jamestown,42.097,-79.2353,277.92,84,100,"{'speed': 3.09, 'deg': 290}",US,['dt']
113,uturoa,-16.7333,-151.4333,299.97,81,59,"{'speed': 10.14, 'deg': 97, 'gust': 11.35}",PF,['dt']
114,uzgen,40.7699,73.3007,272.31,76,100,"{'speed': 2.19, 'deg': 115, 'gust': 2.26}",KG,['dt']
115,whitehorse,60.7161,-135.0538,256.93,82,75,"{'speed': 1.03, 'deg': 130}",CA,['dt']
116,piti village,13.4626,144.6933,300.18,89,100,"{'speed': 2.06, 'deg': 20}",GU,['dt']
117,hasaki,35.7333,140.8333,284.42,71,100,"{'speed': 2.25, 'deg': 198, 'gust': 2.77}",JP,['dt']
118,ha tinh,18.3333,105.9,295.08,94,4,"{'speed': 1.28, 'deg': 172, 'gust': 1.41}",VN,['dt']
119,pacocha,-17.5833,-71.3333,294.89,70,5,"{'speed': 3.22, 'deg': 214, 'gust': 2.71}",PE,['dt']
120,north bend,43.4065,-124.2243,285.88,100,100,"{'speed': 5.66, 'deg': 140}",US,['dt']
121,kogalym,62.2654,74.4791,237.84,97,7,"{'speed': 3.01, 'deg': 64, 'gust': 2.9}",RU,['dt']
122,belyy yar,53.6039,91.3903,240.09,75,85,"{'speed': 0, 'deg': 0}",RU,['dt']
123,nuuk,64.1835,-51.7216,270.49,80,40,"{'speed': 2.06, 'deg': 180}",GL,['dt']
124,luoyang,34.6836,112.4536,273.27,99,100,"{'speed': 2.47, 'deg': 32, 'gust': 4.91}",CN,['dt']
125,paka,4.6374,103.4368,298.11,94,94,"{'speed': 0, 'deg': 0}",MY,['dt']
126,atyrau,47.1167,51.8833,264.16,45,0,"{'speed': 9, 'deg': 70}",KZ,['dt']
127,al hoceima,35.2433,-3.9309,288.72,77,0,"{'speed': 0.51, 'deg': 0}",MA,['dt']
128,nuku'alofa,-21.1333,-175.2,297.34,73,40,"{'speed': 3.09, 'deg': 240}",TO,['dt']
129,cantley,53.5,-1.05,283.02,89,40,"{'speed': 6.12, 'deg': 234, 'gust': 13.51}",GB,['dt']
130,viedma,-40.8135,-62.9967,304.65,14,0,"{'speed': 1.96, 'deg': 1, 'gust': 5.02}",AR,['dt']
131,anloga,5.7947,0.8973,301.4,77,7,"{'speed': 5.01, 'deg': 190, 'gust': 5.03}",GH,['dt']
132,cova figueira,14.8905,-24.2934,297.11,66,100,"{'speed': 4.64, 'deg': 27, 'gust': 5.68}",CV,['dt']
133,phenix city,32.471,-85.0008,290.47,94,100,"{'speed': 2.57, 'deg': 220}",US,['dt']
134,alice springs,-23.7,133.8833,282.9,93,0,"{'speed': 3.09, 'deg': 270}",AU,['dt']
135,salalah,17.0151,54.0924,297.2,60,0,"{'speed': 2.57, 'deg': 340}",OM,['dt']
136,inhambane,-23.865,35.3833,301.14,94,40,"{'speed': 5.36, 'deg': 60, 'gust': 0}",MZ,['dt']
137,armacao de buzios,-22.7469,-41.8817,300.18,72,100,"{'speed': 3.2, 'deg': 86, 'gust': 4.53}",BR,['dt']
138,maintirano,-18.0667,44.0167,301.45,77,13,"{'speed': 0.31, 'deg': 191, 'gust': 0.46}",MG,['dt']
139,klaksvik,62.2266,-6.589,279.66,96,100,"{'speed': 12.32, 'deg': 75, 'gust': 13.32}",FO,['dt']
140,chui,-33.6971,-53.4616,294.41,69,36,"{'speed': 4.44, 'deg': 83, 'gust': 4.7}",UY,['dt']
141,san patricio,28.017,-97.5169,290.07,20,0,"{'speed': 6.75, 'deg': 347, 'gust': 8.11}",US,['dt']
142,zaraza,9.3503,-65.3245,306.97,41,57,"{'speed': 3.48, 'deg': 39, 'gust': 5.36}",VE,['dt']
143,nemuro,43.3236,145.575,272.03,53,26,"{'speed': 6.07, 'deg': 270, 'gust': 6.62}",JP,['dt']
144,tadine,-21.55,167.8833,295.91,74,100,"{'speed': 6.21, 'deg': 124, 'gust': 7.71}",NC,['dt']
145,nikolayevsk-on-amure,53.1406,140.73,252.71,80,100,"{'speed': 4.7, 'deg': 269, 'gust': 12.65}",RU,['dt']
146,dunedin,-45.8742,170.5036,281.93,72,9,"{'speed': 1.32, 'deg': 354, 'gust': 1.9}",NZ,['dt']
147,taroa,8.7058,171.2275,300.96,78,42,"{'speed': 8.87, 'deg': 58, 'gust': 10.38}",MH,['dt']
148,lorengau,-2.0226,147.2712,300.62,84,98,"{'speed': 5.5, 'deg': 292, 'gust': 8.07}",PG,['dt']
149,sabang,5.8933,95.3214,300.76,78,100,"{'speed': 2.04, 'deg': 87, 'gust': 2.54}",ID,['dt']
150,ambodifotatra,-16.9833,49.85,299.78,83,7,"{'speed': 1.22, 'deg': 68, 'gust': 1.87}",MG,['dt']
151,constantia,44.1833,28.65,273.53,81,76,"{'speed': 3.94, 'deg': 192, 'gust': 5.48}",RO,['dt']
152,bac lieu,9.285,105.7244,298.49,88,99,"{'speed': 5.11, 'deg': 77, 'gust': 8.71}",VN,['dt']
153,uttarkashi,30.7333,78.45,282.69,18,24,"{'speed': 2.75, 'deg': 38, 'gust': 2.2}",IN,['dt']
154,fale old settlement,-9.3852,-171.2468,300.91,81,100,"{'speed': 4.05, 'deg': 335, 'gust': 4.77}",TK,['dt']
155,hermanus,-34.4187,19.2345,291.57,70,0,"{'speed': 6.11, 'deg': 94, 'gust': 9.24}",ZA,['dt']
156,howard springs,-12.497,131.047,302.1,93,52,"{'speed': 1.5, 'deg': 336, 'gust': 1.77}",AU,['dt']
157,atafu village,-8.5421,-172.5159,302.66,73,100,"{'speed': 5.35, 'deg': 336, 'gust': 6.27}",TK,['dt']
158,jayapura,-2.5333,140.7,297.81,90,91,"{'speed': 2.66, 'deg': 247, 'gust': 4.07}",ID,['dt']
159,kodyma,48.0988,29.1246,273.35,90,100,"{'speed': 3.13, 'deg': 141, 'gust': 6.19}",UA,['dt']
160,palikir - national government center,6.9248,158.1611,300.56,78,100,"{'speed': 2.57, 'deg': 60}",FM,['dt']
161,al ghayzah,16.2079,52.176,297.51,61,28,"{'speed': 1.63, 'deg': 98, 'gust': 1.81}",YE,['dt']
162,merizo village,13.2658,144.6691,300.0,92,34,"{'speed': 6.06, 'deg': 58, 'gust': 7.31}",GU,['dt']
163,codrington,-38.2667,141.9667,288.07,86,100,"{'speed': 8.08, 'deg': 114, 'gust': 12.78}",AU,['dt']
164,susuman,62.7833,148.1667,259.81,93,100,"{'speed': 0.45, 'deg': 64, 'gust': 0.45}",RU,['dt']
165,kapuskasing,49.4169,-82.4331,268.2,86,100,"{'speed': 6.17, 'deg': 320}",CA,['dt']
166,ariano irpino-martiri,41.1489,15.0833,280.12,88,100,"{'speed': 2.49, 'deg': 333, 'gust': 6.48}",IT,['dt']
167,mahina,-17.5065,-149.489,302.02,70,20,"{'speed': 1.03, 'deg': 0}",PF,['dt']
168,howrah,22.5892,88.3103,292.15,77,0,"{'speed': 1.54, 'deg': 310}",IN,['dt']
169,santa maria da boa vista,-8.8078,-39.8256,309.31,20,0,"{'speed': 5.09, 'deg': 94, 'gust': 5.58}",BR,['dt']
170,anadyr,64.75,177.4833,247.59,83,40,"{'speed': 5, 'deg': 360}",RU,['dt']
171,cestos city,5.46,-9.5828,300.74,79,23,"{'speed': 4.04, 'deg': 223, 'gust': 5.54}",LR,['dt']
172,weligama,5.9667,80.4167,297.29,93,99,"{'speed': 1.15, 'deg': 37, 'gust': 1.31}",LK,['dt']
173,santana,-0.0583,-51.1817,307.25,52,20,"{'speed': 5.14, 'deg': 90}",BR,['dt']
174,biryusinsk,55.9634,97.8235,238.83,100,15,"{'speed': 0.87, 'deg': 128, 'gust': 0.83}",RU,['dt']
175,guangyuan,32.442,105.823,281.59,91,0,"{'speed': 2.87, 'deg': 8, 'gust': 4.23}",CN,['dt']
176,altai,46.3722,96.2583,257.92,55,54,"{'speed': 3.39, 'deg': 212, 'gust': 7.05}",MN,['dt']
177,key west,24.5557,-81.7826,302.15,77,75,"{'speed': 6.69, 'deg': 140}",US,['dt']
178,iquique,-20.2208,-70.1431,296.17,65,15,"{'speed': 2.08, 'deg': 234, 'gust': 2.74}",CL,['dt']
179,dudinka,69.4058,86.1778,245.16,97,100,"{'speed': 5.36, 'deg': 179, 'gust': 8.49}",RU,['dt']
180,mount pearl,47.5166,-52.7813,274.9,82,100,"{'speed': 2.06, 'deg': 300}",CA,['dt']
181,naha,26.2125,127.6811,296.53,86,20,"{'speed': 3.09, 'deg': 150}",JP,['dt']
182,kavieng,-2.5744,150.7967,301.03,76,100,"{'speed': 5.81, 'deg': 291, 'gust': 6.83}",PG,['dt']
183,kiama,-34.6833,150.8667,295.58,92,96,"{'speed': 1.01, 'deg': 321, 'gust': 1.6}",AU,['dt']
184,tuy hoa,13.0833,109.3,295.47,88,22,"{'speed': 1.51, 'deg': 260, 'gust': 1.47}",VN,['dt']
185,saldanha,-33.0117,17.9442,294.18,84,0,"{'speed': 8.86, 'deg': 183, 'gust': 13.39}",ZA,['dt']
186,messaad,34.1543,3.5031,287.09,54,8,"{'speed': 1.77, 'deg': 338, 'gust': 2.22}",DZ,['dt']
187,saint john's,47.5649,-52.7093,275.36,81,100,"{'speed': 2.24, 'deg': 237, 'gust': 4.02}",CA,['dt']
188,yuzhno-kurilsk,44.0306,145.8556,273.91,76,100,"{'speed': 7.24, 'deg': 291, 'gust': 8.26}",RU,['dt']
189,lhokseumawe,5.1801,97.1507,299.03,86,99,"{'speed': 1.4, 'deg': 214, 'gust': 1.38}",ID,['dt']
190,bezhetsk,57.7851,36.6965,263.14,93,100,"{'speed': 4.76, 'deg': 141, 'gust': 10.69}",RU,['dt']
191,ribeira grande,38.5167,-28.7,291.37,77,40,"{'speed': 7.72, 'deg': 260}",PT,['dt']
192,luderitz,-26.6481,15.1594,292.24,65,4,"{'speed': 10.73, 'deg': 172, 'gust': 16.76}",NA,['dt']
193,sinabang,2.4803,96.3801,299.06,86,99,"{'speed': 1.35, 'deg': 201, 'gust': 1.46}",ID,['dt']
194,enriquillo,17.9,-71.2333,304.97,72,1,"{'speed': 7.75, 'deg': 81, 'gust': 11.69}",DO,['dt']
195,nova sintra,14.8667,-24.7167,296.3,74,100,"{'speed': 4.07, 'deg': 32, 'gust': 5.42}",CV,['dt']
196,ola,59.5833,151.2833,271.01,79,100,"{'speed': 10.9, 'deg': 75, 'gust': 16.14}",RU,['dt']
197,gamba,-2.65,10.0,299.77,83,100,"{'speed': 3.2, 'deg': 217, 'gust': 5.29}",GA,['dt']
198,papayal,-4.0761,-80.7361,305.28,43,2,"{'speed': 5.08, 'deg': 304, 'gust': 3.44}",PE,['dt']
199,bilibino,68.0546,166.4372,246.71,99,34,"{'speed': 1.83, 'deg': 51, 'gust': 1.58}",RU,['dt']
200,altus,34.6381,-99.334,283.88,26,0,"{'speed': 4.12, 'deg': 200}",US,['dt']
201,nar'yan-mar,67.6713,53.087,250.43,91,95,"{'speed': 4.92, 'deg': 195, 'gust': 11.18}",RU,['dt']
202,nguigmi,14.2495,13.1092,295.32,27,7,"{'speed': 5.94, 'deg': 7, 'gust': 10.65}",NE,['dt']
203,mossel bay,-34.1831,22.146,290.11,76,7,"{'speed': 6.01, 'deg': 98, 'gust': 7.12}",ZA,['dt']
204,linhares,-19.3911,-40.0722,300.16,63,87,"{'speed': 4.43, 'deg': 136, 'gust': 5.11}",BR,['dt']
205,caleta de carquin,-11.0925,-77.6267,295.92,72,17,"{'speed': 5.33, 'deg': 198, 'gust': 5.23}",PE,['dt']
206,mugia,43.1041,-9.2179,291.02,87,100,"{'speed': 11.1, 'deg': 201, 'gust': 17.95}",ES,['dt']
207,matoury,4.8483,-52.3317,304.13,62,40,"{'speed': 4.63, 'deg': 60}",GF,['dt']
208,lebyazh'ye,55.2689,66.4947,239.56,98,17,"{'speed': 2.92, 'deg': 7, 'gust': 5.99}",RU,['dt']
209,callao,-12.0667,-77.15,296.31,64,20,"{'speed': 5.66, 'deg': 190}",PE,['dt']
210,selfoss,63.9331,-20.9971,270.95,78,100,"{'speed': 2.53, 'deg': 50, 'gust': 2.53}",IS,['dt']
211,ust-nera,64.5667,143.2,255.41,98,100,"{'speed': 4.07, 'deg': 29, 'gust': 5.58}",RU,['dt']
212,el calafate,-50.3408,-72.2768,285.35,58,100,"{'speed': 3.52, 'deg': 295, 'gust': 3.96}",AR,['dt']
213,st. john's,47.5649,-52.7093,275.36,82,100,"{'speed': 2.24, 'deg': 237, 'gust': 4.02}",CA,['dt']
214,tidjikja,18.5564,-11.4271,297.23,16,9,"{'speed': 5.63, 'deg': 84, 'gust': 10.01}",MR,['dt']
215,dededo village,13.5178,144.8391,299.59,88,100,"{'speed': 6.17, 'deg': 50}",GU,['dt']
216,utrik,11.2278,169.8474,300.36,74,31,"{'speed': 10.21, 'deg': 62, 'gust': 11.34}",MH,['dt']
217,intendente alvear,-35.2338,-63.592,307.04,15,1,"{'speed': 5.92, 'deg': 27, 'gust': 5.2}",AR,['dt']
218,bardai,11.65,7.2333,294.55,17,53,"{'speed': 4.1, 'deg': 65, 'gust': 6.22}",NG,['dt']
219,kolonia town,6.964,158.206,301.15,78,100,"{'speed': 2.57, 'deg': 60}",FM,['dt']
220,qaqortoq,60.7167,-46.0333,267.04,75,100,"{'speed': 1.23, 'deg': 75, 'gust': 1.28}",GL,['dt']
221,kargopol',61.5071,38.9456,259.24,93,100,"{'speed': 4.78, 'deg': 149, 'gust': 12.93}",RU,['dt']
222,massawa,15.6097,39.45,301.23,62,0,"{'speed': 2.8, 'deg': 128, 'gust': 3.45}",ER,['dt']
223,conduaga,8.862,117.4893,299.18,84,18,"{'speed': 2.29, 'deg': 79, 'gust': 2.69}",PH,['dt']
224,zaragoza,41.6561,-0.8773,290.4,70,20,"{'speed': 4.63, 'deg': 240}",ES,['dt']
225,rahachow,53.0934,30.0495,269.95,96,100,"{'speed': 3.81, 'deg': 139, 'gust': 8.86}",BY,['dt']
226,chonchi,-42.6128,-73.8092,291.71,60,99,"{'speed': 1.31, 'deg': 230, 'gust': 2.6}",CL,['dt']
227,tekirova,36.5017,30.5272,287.58,74,100,"{'speed': 2.07, 'deg': 346, 'gust': 2.06}",TR,['dt']
228,afaahiti,-17.75,-149.2833,301.08,83,83,"{'speed': 10.85, 'deg': 109, 'gust': 11.48}",PF,['dt']
229,praia grande,-24.0058,-46.4028,299.23,63,100,"{'speed': 3.6, 'deg': 120}",BR,['dt']
230,mejit,10.2753,170.8646,300.25,77,100,"{'speed': 10.43, 'deg': 56, 'gust': 11.14}",MH,['dt']
231,tra mhor,52.1624,-7.1524,284.67,78,40,"{'speed': 9.26, 'deg': 260, 'gust': 16.46}",IE,['dt']
232,tsagan aman,47.5639,46.7218,268.46,60,80,"{'speed': 6.65, 'deg': 76, 'gust': 11.92}",RU,['dt']
233,lodja,-3.4833,23.4333,294.46,97,99,"{'speed': 1.23, 'deg': 27, 'gust': 6.02}",CD,['dt']
234,wailua homesteads,22.0669,-159.378,296.96,87,20,"{'speed': 4.63, 'deg': 70}",US,['dt']
235,charters towers,-20.1,146.2667,294.84,73,22,"{'speed': 3.34, 'deg': 145, 'gust': 6.01}",AU,['dt']
236,pandan,14.0453,124.1694,299.53,83,71,"{'speed': 3.02, 'deg': 65, 'gust': 3.77}",PH,['dt']
237,scarborough,54.2797,-0.4044,280.91,90,100,"{'speed': 3.58, 'deg': 189, 'gust': 6.71}",GB,['dt']
238,dryden,49.7833,-92.7503,266.31,93,100,"{'speed': 3.09, 'deg': 300}",CA,['dt']
239,montecarlo,-26.5662,-54.757,296.74,87,100,"{'speed': 0.16, 'deg': 309, 'gust': 1.32}",AR,['dt']
240,hamilton,39.1834,-84.5333,277.12,76,100,"{'speed': 5.81, 'deg': 282, 'gust': 8.05}",US,['dt']
241,poronaysk,49.2167,143.1167,256.29,84,41,"{'speed': 3.52, 'deg': 293, 'gust': 4.08}",RU,['dt']
242,brookings,44.3114,-96.7984,272.62,83,0,"{'speed': 0.89, 'deg': 257, 'gust': 1.79}",US,['dt']
243,pisco,-13.7,-76.2167,295.38,73,0,"{'speed': 4.63, 'deg': 300}",PE,['dt']
244,talnakh,69.4865,88.3972,244.93,99,100,"{'speed': 3.88, 'deg': 121, 'gust': 5.26}",RU,['dt']
245,urangan,-25.3,152.9,297.13,69,5,"{'speed': 8.61, 'deg': 99, 'gust': 10.47}",AU,['dt']
246,bakal,54.9417,58.8083,245.68,100,83,"{'speed': 0.95, 'deg': 94, 'gust': 0.82}",RU,['dt']
247,ugoofaaru,5.6667,73.0,301.57,76,50,"{'speed': 2.95, 'deg': 171, 'gust': 3.16}",MV,['dt']
248,arraial do cabo,-22.9661,-42.0278,299.07,61,75,"{'speed': 7.2, 'deg': 100}",BR,['dt']
249,alvorada,-12.48,-49.1247,307.93,36,99,"{'speed': 1.95, 'deg': 296, 'gust': 4.58}",BR,['dt']
250,lazaro cardenas,17.9583,-102.2,302.66,52,100,"{'speed': 2.5, 'deg': 214, 'gust': 1.9}",MX,['dt']
251,baiyin,36.5583,104.2081,271.3,52,98,"{'speed': 2.12, 'deg': 26, 'gust': 2.82}",CN,['dt']
252,luanda,-8.8368,13.2343,301.15,82,75,"{'speed': 5.14, 'deg': 240}",AO,['dt']
253,morehead city,34.7229,-76.726,294.16,85,100,"{'speed': 7.2, 'deg': 190, 'gust': 12.35}",US,['dt']
254,vorgashor,67.5833,63.95,247.4,100,100,"{'speed': 2.34, 'deg': 179, 'gust': 2.34}",RU,['dt']
255,vikindu,-7.0067,39.2985,299.95,83,40,"{'speed': 1.54, 'deg': 60}",TZ,['dt']
256,eregli,37.5133,34.0467,281.04,60,100,"{'speed': 0.3, 'deg': 7, 'gust': 0.81}",TR,['dt']
257,zaraysk,54.7653,38.8836,262.36,95,100,"{'speed': 5.45, 'deg': 137, 'gust': 11.61}",RU,['dt']
258,ellensburg,46.9965,-120.5479,276.18,95,100,"{'speed': 0, 'deg': 0}",US,['dt']
259,halifax,44.6453,-63.5724,281.05,90,93,"{'speed': 1.34, 'deg': 133, 'gust': 3.58}",CA,['dt']
260,ishpeming,46.4885,-87.6676,270.1,90,100,"{'speed': 4.4, 'deg': 318, 'gust': 6.47}",US,['dt']
261,crane,31.3974,-102.3501,282.47,28,5,"{'speed': 4.46, 'deg': 242, 'gust': 4.95}",US,['dt']
262,margate,51.3813,1.3862,283.77,80,0,"{'speed': 4.47, 'deg': 198, 'gust': 6.71}",GB,['dt']
263,port douglas,-16.4833,145.4667,297.04,84,93,"{'speed': 2.19, 'deg': 237, 'gust': 2.48}",AU,['dt']
264,tapes,-30.6733,-51.3958,295.72,83,76,"{'speed': 6.43, 'deg': 65, 'gust': 7.7}",BR,['dt']
265,colonia,50.9333,6.95,282.92,84,75,"{'speed': 4.63, 'deg': 170}",DE,['dt']
266,mexico,15.0646,120.7198,298.99,85,83,"{'speed': 1.99, 'deg': 4, 'gust': 2.58}",PH,['dt']
267,kristiansund,63.1115,7.732,274.51,64,0,"{'speed': 1.54, 'deg': 0}",NO,['dt']
268,tabou,4.423,-7.3528,300.2,80,58,"{'speed': 3.25, 'deg': 194, 'gust': 4.82}",CI,['dt']
269,quellon,-43.1167,-73.6167,288.09,77,99,"{'speed': 3.16, 'deg': 174, 'gust': 3.78}",CL,['dt']
270,tyazhinskiy,56.116,88.524,239.9,98,29,"{'speed': 2.05, 'deg': 67, 'gust': 3.85}",RU,['dt']
271,quincy,42.2529,-71.0023,289.82,84,75,"{'speed': 5.66, 'deg': 190}",US,['dt']
272,islamkot,24.6997,70.177,293.42,25,0,"{'speed': 0.53, 'deg': 224, 'gust': 1.18}",PK,['dt']
273,chesapeake,36.819,-76.2749,292.25,95,100,"{'speed': 6.17, 'deg': 190, 'gust': 8.23}",US,['dt']
274,sao jose da coroa grande,-8.8978,-35.1478,301.06,61,62,"{'speed': 3.63, 'deg': 90, 'gust': 4.23}",BR,['dt']
275,pokhara,28.2333,83.9833,285.42,64,13,"{'speed': 2, 'deg': 4, 'gust': 1.66}",NP,['dt']
276,garautha,25.5667,79.3,290.62,49,0,"{'speed': 1.43, 'deg': 4, 'gust': 1.47}",IN,['dt']
277,labrador city,52.9463,-66.9114,272.1,86,100,"{'speed': 5.66, 'deg': 180, 'gust': 8.75}",CA,['dt']
278,betio village,1.358,172.9211,300.17,75,36,"{'speed': 2.87, 'deg': 270, 'gust': 2.87}",KI,['dt']
279,namibe,-15.1961,12.1522,296.19,78,33,"{'speed': 3.75, 'deg': 233, 'gust': 4.14}",AO,['dt']
280,belokurikha,51.9959,84.9896,251.57,95,21,"{'speed': 1.1, 'deg': 151, 'gust': 1.13}",RU,['dt']
281,vorkuta,67.5,64.0,247.46,100,100,"{'speed': 2.21, 'deg': 185, 'gust': 2.13}",RU,['dt']
282,volosovo,59.4333,29.4833,263.27,95,97,"{'speed': 3.4, 'deg': 135, 'gust': 9.31}",RU,['dt']
283,puerto san jose,13.9256,-90.8244,303.31,59,5,"{'speed': 3.04, 'deg': 206, 'gust': 2.54}",GT,['dt']
284,ceres,37.5949,-120.9577,286.51,75,0,"{'speed': 0, 'deg': 0}",US,['dt']
285,granada,37.25,-3.25,281.55,33,10,"{'speed': 1.49, 'deg': 242, 'gust': 1.43}",ES,['dt']
286,safotu,-13.4513,-172.4018,299.96,85,100,"{'speed': 1.74, 'deg': 31, 'gust': 2.7}",WS,['dt']
287,rouissat,31.9243,5.3502,289.19,36,0,"{'speed': 1.54, 'deg': 210}",DZ,['dt']
288,reggane,26.7158,0.1714,290.96,34,4,"{'speed': 4.48, 'deg': 75, 'gust': 6.23}",DZ,['dt']
289,suez,29.9737,32.5263,288.65,44,7,"{'speed': 0.99, 'deg': 151, 'gust': 1.2}",EG,['dt']
290,bridgeport,41.167,-73.2048,288.12,88,100,"{'speed': 4.63, 'deg': 180}",US,['dt']
291,tangalle,6.024,80.7911,297.24,90,99,"{'speed': 1.24, 'deg': 22, 'gust': 1.39}",LK,['dt']
292,ar rumaythah,31.5263,45.2025,294.03,38,100,"{'speed': 2.64, 'deg': 29, 'gust': 2.66}",IQ,['dt']
293,kabalo,-6.05,26.9167,295.39,96,100,"{'speed': 1.69, 'deg': 355, 'gust': 2.9}",CD,['dt']
294,huntsville,34.7304,-86.5861,283.27,64,0,"{'speed': 6.17, 'deg': 340}",US,['dt']
295,hongwon,40.0253,127.9558,276.64,97,100,"{'speed': 5.07, 'deg': 97, 'gust': 7.02}",KP,['dt']
296,aykhal,66.0,111.5,244.99,99,100,"{'speed': 1.77, 'deg': 282, 'gust': 1.63}",RU,['dt']
297,volodarskiy,46.4013,48.5409,269.12,77,100,"{'speed': 7.26, 'deg': 64, 'gust': 12.25}",RU,['dt']
298,fort bragg,35.139,-79.006,296.38,80,100,"{'speed': 5.66, 'deg': 180}",US,['dt']
299,babana,10.4295,3.815,299.78,11,6,"{'speed': 1.57, 'deg': 50, 'gust': 1.62}",NG,['dt']
300,cascais,38.6979,-9.4215,291.02,96,75,"{'speed': 4.02, 'deg': 170, 'gust': 0}",PT,['dt']
301,namtsy,62.7161,129.6658,242.0,90,100,"{'speed': 4.9, 'deg': 288, 'gust': 12.72}",RU,['dt']
302,lerwick,60.1545,-1.1494,280.15,74,100,"{'speed': 10.59, 'deg': 124, 'gust': 12.66}",GB,['dt']
303,dano,11.15,-3.0667,302.41,9,47,"{'speed': 3.13, 'deg': 20, 'gust': 4.12}",BF,['dt']
304,antalaha,-14.9003,50.2788,297.76,91,99,"{'speed': 2.18, 'deg': 185, 'gust': 2.85}",MG,['dt']
305,ambovombe,-25.1667,46.0833,298.0,88,61,"{'speed': 1.21, 'deg': 149, 'gust': 2.25}",MG,['dt']
306,brokopondo,4.75,-55.1667,304.65,54,99,"{'speed': 1.23, 'deg': 88, 'gust': 2.43}",SR,['dt']
307,waat,51.1454,6.4958,283.3,90,100,"{'speed': 5.66, 'deg': 170}",DE,['dt']
308,rawala kot,33.8578,73.7604,279.23,27,100,"{'speed': 2.9, 'deg': 50, 'gust': 2.64}",PK,['dt']
309,nur-sultan,51.1801,71.446,248.12,84,100,"{'speed': 0, 'deg': 0}",KZ,['dt']
310,narayangarh,30.4833,77.1333,286.23,35,6,"{'speed': 1.12, 'deg': 31, 'gust': 1.17}",IN,['dt']
311,geraldton,-28.7667,114.6,292.38,19,0,"{'speed': 4.63, 'deg': 110}",AU,['dt']
312,magadan,59.5667,150.8,270.67,80,61,"{'speed': 11.26, 'deg': 77, 'gust': 18.14}",RU,['dt']
313,huanggang,23.677,116.9996,293.09,83,97,"{'speed': 0.52, 'deg': 22, 'gust': 0.63}",CN,['dt']
314,alesund,62.4723,6.1549,276.23,85,75,"{'speed': 4.12, 'deg': 130}",NO,['dt']
315,mar del plata,-38.0023,-57.5575,300.28,69,40,"{'speed': 7.72, 'deg': 160}",AR,['dt']
316,kosh-agach,50.0,88.6667,242.21,94,86,"{'speed': 0.89, 'deg': 2, 'gust': 1.34}",RU,['dt']
317,skowhegan,44.7651,-69.7192,282.91,99,100,"{'speed': 2.02, 'deg': 187, 'gust': 9.19}",US,['dt']
318,eureka,40.8021,-124.1637,284.93,82,100,"{'speed': 1.26, 'deg': 165, 'gust': 1.65}",US,['dt']
319,pangody,65.85,74.4859,238.04,99,44,"{'speed': 3.6, 'deg': 231, 'gust': 4.86}",RU,['dt']
320,baikonur,45.6167,63.3167,262.92,28,8,"{'speed': 6.95, 'deg': 48, 'gust': 11.41}",KZ,['dt']
321,mount isa,-20.7333,139.5,297.02,46,100,"{'speed': 7.72, 'deg': 180}",AU,['dt']
322,kalianget,-7.05,113.9333,300.44,78,95,"{'speed': 1.7, 'deg': 190, 'gust': 1.79}",ID,['dt']
323,tolanaro,-25.0319,46.9987,299.19,89,20,"{'speed': 9.77, 'deg': 80}",MG,['dt']
324,lihue,21.9789,-159.3672,297.29,83,20,"{'speed': 4.63, 'deg': 70}",US,['dt']
325,dawson creek,55.7666,-120.2362,276.95,56,0,"{'speed': 7.2, 'deg': 250, 'gust': 10.8}",CA,['dt']
326,briviesca,42.5499,-3.3232,285.23,78,100,"{'speed': 7.84, 'deg': 219, 'gust': 14.07}",ES,['dt']
327,marsala,37.7966,12.4352,290.12,88,20,"{'speed': 5.14, 'deg': 340}",IT,['dt']
328,karratha,-20.7377,116.8463,300.73,22,5,"{'speed': 6.82, 'deg': 104, 'gust': 11.22}",AU,['dt']
329,piton saint-leu,-21.2196,55.3151,298.21,78,0,"{'speed': 3.6, 'deg': 210}",RE,['dt']
330,ketchikan,55.3422,-131.6461,276.67,87,20,"{'speed': 0, 'deg': 0}",US,['dt']
331,san julian,21.0167,-102.1667,293.29,40,43,"{'speed': 6, 'deg': 107, 'gust': 6.03}",MX,['dt']
332,saipan,15.1355,145.701,300.54,83,40,"{'speed': 4.12, 'deg': 50}",MP,['dt']
333,saint-francois,46.4154,3.9054,284.07,83,100,"{'speed': 5.14, 'deg': 180}",FR,['dt']
334,naukot,24.8587,69.4024,293.07,31,0,"{'speed': 2.33, 'deg': 212, 'gust': 2.61}",PK,['dt']
335,port saint john's,-31.6229,29.5448,291.18,85,100,"{'speed': 1.39, 'deg': 294, 'gust': 1.62}",ZA,['dt']
336,vallenar,-28.5708,-70.7581,303.27,26,0,"{'speed': 5.12, 'deg': 320, 'gust': 4.59}",CL,['dt']
337,nyagan,62.1406,65.3936,236.21,100,25,"{'speed': 0.44, 'deg': 168, 'gust': 0.42}",RU,['dt']
338,primero de mayo,-32.2552,-58.4228,303.61,36,0,"{'speed': 3.42, 'deg': 125, 'gust': 4}",AR,['dt']
339,sitka,57.0531,-135.33,275.09,87,40,"{'speed': 2.57, 'deg': 90}",US,['dt']
340,badger,64.8,-147.5333,251.93,74,20,"{'speed': 1.54, 'deg': 30}",US,['dt']
341,horta,38.5333,-28.6333,290.95,81,40,"{'speed': 7.72, 'deg': 260}",PT,['dt']
342,lebu,-37.6167,-73.65,288.82,70,100,"{'speed': 9.49, 'deg': 200, 'gust': 15.27}",CL,['dt']
343,oruro,-17.9833,-67.15,292.03,30,100,"{'speed': 6.16, 'deg': 70, 'gust': 5.7}",BO,['dt']
344,sungai penuh,-2.0833,101.3833,292.01,99,100,"{'speed': 0.59, 'deg': 285, 'gust': 0.73}",ID,['dt']
345,inderbor,48.55,51.7833,264.02,63,18,"{'speed': 7.07, 'deg': 72, 'gust': 11.49}",KZ,['dt']
346,vologda,59.2187,39.8886,256.51,91,100,"{'speed': 6.26, 'deg': 125, 'gust': 13.41}",RU,['dt']
347,labuan,5.2767,115.2417,299.35,94,20,"{'speed': 0, 'deg': 0}",MY,['dt']
348,sovetskaya,44.7769,41.1722,277.61,87,96,"{'speed': 4.86, 'deg': 107, 'gust': 9.84}",RU,['dt']
349,leava,-14.3,-178.1667,301.0,75,66,"{'speed': 7.9, 'deg': 175, 'gust': 8.11}",WF,['dt']
350,enewetak,11.3474,162.3373,300.78,72,100,"{'speed': 7.31, 'deg': 92, 'gust': 8.17}",MH,['dt']
351,villa regina,-39.1,-67.0667,308.14,15,97,"{'speed': 2.24, 'deg': 45, 'gust': 4.92}",AR,['dt']
352,happy valley-goose bay,53.3168,-60.3315,272.32,64,100,"{'speed': 6.17, 'deg': 220, 'gust': 10.8}",CA,['dt']
353,bethanie,-26.4833,17.15,296.41,15,0,"{'speed': 5.09, 'deg': 156, 'gust': 9.88}",NA,['dt']
354,carloforte,39.145,8.3058,288.95,76,9,"{'speed': 5.3, 'deg': 314, 'gust': 7.28}",IT,['dt']
355,ngereklmadel,7.4883,134.4856,299.2,94,75,"{'speed': 2.57, 'deg': 30}",PW,['dt']
356,holualoa,19.6228,-155.9522,298.63,71,0,"{'speed': 5.14, 'deg': 130}",US,['dt']
357,iscehisar,38.8619,30.7503,279.36,74,100,"{'speed': 1.28, 'deg': 121, 'gust': 1.35}",TR,['dt']
358,sao jose de piranhas,-7.1206,-38.5019,309.58,22,63,"{'speed': 3.64, 'deg': 53, 'gust': 3.79}",BR,['dt']
359,minas de marcona,-15.2119,-75.1103,294.45,56,100,"{'speed': 5.83, 'deg': 175, 'gust': 5.5}",PE,['dt']
360,karimganj,24.8667,92.35,289.24,91,0,"{'speed': 1.28, 'deg': 79, 'gust': 1.31}",IN,['dt']
361,la foa,-21.7108,165.8276,295.42,68,100,"{'speed': 1.79, 'deg': 72, 'gust': 2.21}",NC,['dt']
362,ad dilam,23.9915,47.1627,293.38,16,98,"{'speed': 2.28, 'deg': 135, 'gust': 2.34}",SA,['dt']
363,vila velha,-20.3297,-40.2925,301.12,71,40,"{'speed': 5.14, 'deg': 170}",BR,['dt']
364,sur,22.5667,59.5289,296.24,53,4,"{'speed': 1.33, 'deg': 8, 'gust': 1.56}",OM,['dt']
365,colachel,8.1667,77.25,299.59,83,100,"{'speed': 3.14, 'deg': 59, 'gust': 3.26}",IN,['dt']
366,peretu,44.05,25.0833,275.06,78,98,"{'speed': 1.45, 'deg': 216, 'gust': 1.52}",RO,['dt']
367,new norfolk,-42.7826,147.0587,284.22,82,91,"{'speed': 1.43, 'deg': 290, 'gust': 1.64}",AU,['dt']
368,bengkulu,-3.8004,102.2655,297.11,90,100,"{'speed': 1.21, 'deg': 84, 'gust': 1.49}",ID,['dt']
369,zuromin,53.0661,19.9089,272.96,98,100,"{'speed': 4.87, 'deg': 154, 'gust': 9.02}",PL,['dt']
370,ingeniero jacobacci,-41.3427,-69.5448,301.12,15,73,"{'speed': 9.23, 'deg': 324, 'gust': 9.62}",AR,['dt']
371,forest,37.3638,-79.2897,287.06,99,100,"{'speed': 1.54, 'deg': 180}",US,['dt']
372,smithers,54.7804,-127.1743,266.33,93,75,"{'speed': 1.54, 'deg': 110}",CA,['dt']
373,port blair,11.6667,92.75,299.17,89,20,"{'speed': 1.03, 'deg': 0}",IN,['dt']
374,timbuktu,16.7735,-3.0074,297.43,14,0,"{'speed': 5.31, 'deg': 18, 'gust': 7.28}",ML,['dt']
375,ubari,26.5921,12.7805,287.7,58,36,"{'speed': 3.16, 'deg': 335, 'gust': 3.78}",LY,['dt']
376,hun,29.1268,15.9477,287.48,61,1,"{'speed': 4.36, 'deg': 338, 'gust': 7.01}",LY,['dt']
377,manokwari,-0.8667,134.0833,299.02,81,100,"{'speed': 3.66, 'deg': 281, 'gust': 6}",ID,['dt']
378,novyye burasy,52.1324,46.0714,259.63,89,95,"{'speed': 4.66, 'deg': 92, 'gust': 11.29}",RU,['dt']
379,flying fish cove,-10.4217,105.6791,296.97,88,100,"{'speed': 3.09, 'deg': 120}",CX,['dt']
380,saint-louis,16.3333,-15.0,305.95,13,0,"{'speed': 3.82, 'deg': 59, 'gust': 3.93}",SN,['dt']
381,francistown,-21.17,27.5079,294.07,80,100,"{'speed': 3.68, 'deg': 109, 'gust': 9.63}",BW,['dt']
382,nacozari viejo,30.4,-109.65,285.35,13,0,"{'speed': 4.13, 'deg': 28, 'gust': 4.58}",MX,['dt']
383,greymouth,-42.4667,171.2,284.99,73,98,"{'speed': 2.07, 'deg': 230, 'gust': 3.07}",NZ,['dt']
384,yerofey pavlovich,53.9667,121.9667,241.88,93,11,"{'speed': 1.58, 'deg': 297, 'gust': 1.32}",RU,['dt']
385,linxia chengguanzhen,35.6003,103.2064,273.67,50,100,"{'speed': 1.13, 'deg': 31, 'gust': 1.16}",CN,['dt']
386,inarajan village,13.2736,144.7484,300.23,92,22,"{'speed': 6.04, 'deg': 59, 'gust': 7.25}",GU,['dt']
387,ghanzi,-21.5667,21.7833,291.93,80,79,"{'speed': 6.63, 'deg': 79, 'gust': 10.92}",BW,['dt']
388,rongelap,11.1635,166.8941,300.11,80,100,"{'speed': 8.1, 'deg': 63, 'gust': 8.94}",MH,['dt']
389,tazovsky,67.4667,78.7,243.52,93,100,"{'speed': 4.13, 'deg': 228, 'gust': 7.93}",RU,['dt']
390,carnarvon,-24.8667,113.6333,299.38,25,0,"{'speed': 7.91, 'deg': 88, 'gust': 14.29}",AU,['dt']
391,hotan,37.0997,79.9269,278.34,22,3,"{'speed': 0.92, 'deg': 155, 'gust': 3.36}",CN,['dt']
392,khost,33.3395,69.9204,282.01,25,8,"{'speed': 1.2, 'deg': 306, 'gust': 1.22}",AF,['dt']
393,arteche,12.2645,125.4048,299.04,87,100,"{'speed': 3.78, 'deg': 55, 'gust': 5.54}",PH,['dt']
394,nioki,-2.7167,17.6833,296.93,88,96,"{'speed': 0.43, 'deg': 141, 'gust': 0.61}",CD,['dt']
395,itaituba,-4.2761,-55.9836,306.24,58,40,"{'speed': 2.57, 'deg': 340}",BR,['dt']
396,auerbach,50.5167,12.4,279.73,84,99,"{'speed': 7.14, 'deg': 221, 'gust': 15.9}",DE,['dt']
397,bakchar,57.0186,82.0711,243.83,97,44,"{'speed': 2.04, 'deg': 51, 'gust': 6.26}",RU,['dt']
398,cooper's town,26.8667,-77.5167,298.56,76,67,"{'speed': 8.43, 'deg': 151, 'gust': 10.77}",BS,['dt']
399,borba,-4.3878,-59.5939,304.37,62,100,"{'speed': 1.32, 'deg': 329, 'gust': 4.05}",BR,['dt']
400,sindgi,16.9167,76.2333,294.82,52,30,"{'speed': 4.01, 'deg': 82, 'gust': 6.54}",IN,['dt']
401,zhob,31.3411,69.4481,283.26,22,0,"{'speed': 2.68, 'deg': 250, 'gust': 2.86}",PK,['dt']
402,santa ana,33.7456,-117.8678,297.52,21,40,"{'speed': 2.06, 'deg': 210}",US,['dt']
403,tsiombe,-25.3,45.4833,298.3,87,34,"{'speed': 2.03, 'deg': 152, 'gust': 3.88}",MG,['dt']
404,caraballeda,10.6112,-66.8522,305.19,68,40,"{'speed': 1.54, 'deg': 90}",VE,['dt']
405,gadzhiyevo,69.2551,33.3362,262.03,85,100,"{'speed': 8.74, 'deg': 197, 'gust': 14.13}",RU,['dt']
406,edd,13.9297,41.6925,301.37,51,0,"{'speed': 7.94, 'deg': 133, 'gust': 10.55}",ER,['dt']
407,olyokminsk,60.3736,120.4264,245.91,91,100,"{'speed': 3.55, 'deg': 270, 'gust': 9.06}",RU,['dt']
408,long beach,33.767,-118.1892,297.25,19,0,"{'speed': 2.06, 'deg': 340}",US,['dt']
409,inayagan,10.2348,123.769,300.3,90,50,"{'speed': 2.39, 'deg': 31, 'gust': 2.69}",PH,['dt']
410,broome,42.2506,-75.833,285.07,95,100,"{'speed': 5.66, 'deg': 330, 'gust': 8.75}",US,['dt']
411,uusikaupunki,60.8004,21.4084,266.94,94,99,"{'speed': 3.1, 'deg': 97, 'gust': 6.46}",FI,['dt']
412,jabat,7.75,168.9751,300.44,84,32,"{'speed': 7.37, 'deg': 64, 'gust': 8.59}",MH,['dt']
413,wenchang,30.904,118.4887,284.18,90,100,"{'speed': 3.49, 'deg': 6, 'gust': 4.75}",CN,['dt']
414,esil,51.9556,66.4042,242.63,100,100,"{'speed': 2.84, 'deg': 14, 'gust': 4.7}",KZ,['dt']
415,yamba,-5.9,22.3,295.47,90,97,"{'speed': 0.45, 'deg': 193, 'gust': 0.43}",CD,['dt']
416,beloyarskiy,63.7119,66.6722,238.15,100,29,"{'speed': 1.34, 'deg': 65, 'gust': 0.89}",RU,['dt']
417,ust-kamenogorsk,49.9789,82.6103,244.2,75,100,"{'speed': 1, 'deg': 0}",KZ,['dt']
418,nadym,65.5333,72.5167,238.13,99,19,"{'speed': 3.6, 'deg': 220, 'gust': 3.57}",RU,['dt']
419,nynashamn,58.9034,17.9479,274.32,82,100,"{'speed': 7.09, 'deg': 115, 'gust': 9.01}",SE,['dt']
420,itaueira,-7.6033,-43.0256,299.93,70,99,"{'speed': 0.28, 'deg': 272, 'gust': 3.19}",BR,['dt']
421,khandyga,62.6667,135.6,239.4,99,100,"{'speed': 1.25, 'deg': 268, 'gust': 3.12}",RU,['dt']
422,fonte boa,-2.4959,-66.2662,300.5,84,98,"{'speed': 1.28, 'deg': 205, 'gust': 1.32}",BR,['dt']
423,kisangani,0.5167,25.2,294.72,98,100,"{'speed': 1.09, 'deg': 84, 'gust': 2.62}",CD,['dt']
424,apostolove,47.66,33.7137,275.35,96,100,"{'speed': 2.62, 'deg': 107, 'gust': 5.38}",UA,['dt']
425,laja,-37.2667,-72.7,304.31,15,100,"{'speed': 2.1, 'deg': 125, 'gust': 2.92}",CL,['dt']
426,nova vicosa,-17.8919,-39.3719,300.5,69,30,"{'speed': 4.61, 'deg': 143, 'gust': 4.62}",BR,['dt']
427,kourou,5.1552,-52.6478,304.18,70,34,"{'speed': 3.52, 'deg': 80, 'gust': 4.58}",GF,['dt']
428,ardanuc,41.1274,42.0629,282.25,92,97,"{'speed': 0.54, 'deg': 171, 'gust': 0.95}",TR,['dt']
429,ruzayevka,54.0639,44.9509,259.41,92,100,"{'speed': 5.11, 'deg': 124, 'gust': 11.69}",RU,['dt']
430,llallagua,-18.4167,-66.6333,287.27,48,99,"{'speed': 7.44, 'deg': 49, 'gust': 6.79}",BO,['dt']
431,chilca,-12.5211,-76.7372,293.98,78,19,"{'speed': 3.77, 'deg': 218, 'gust': 2.86}",PE,['dt']
432,jiaojiang,28.6803,121.4428,288.15,92,18,"{'speed': 0.89, 'deg': 1, 'gust': 0.9}",CN,['dt']
433,puerto francisco de orellana,-0.4667,-76.9667,303.18,70,75,"{'speed': 1.03, 'deg': 100}",EC,['dt']
434,akureyri,65.6835,-18.0878,259.11,85,20,"{'speed': 1.54, 'deg': 180}",IS,['dt']
435,praia da vitoria,38.7333,-27.0667,291.35,82,20,"{'speed': 5.33, 'deg': 243, 'gust': 7.18}",PT,['dt']
436,divrigi,39.371,38.1137,279.18,91,100,"{'speed': 1.85, 'deg': 128, 'gust': 2.16}",TR,['dt']
437,ashkasham,36.6833,71.5333,266.81,25,100,"{'speed': 1.21, 'deg': 121, 'gust': 1.68}",AF,['dt']
438,portland,45.5234,-122.6762,285.53,95,100,"{'speed': 4.63, 'deg': 90}",US,['dt']
439,falesti,47.5736,27.7092,271.74,95,75,"{'speed': 2.37, 'deg': 121, 'gust': 4.86}",MD,['dt']
440,romblon,12.5751,122.2708,300.31,82,47,"{'speed': 6.08, 'deg': 33, 'gust': 6.54}",PH,['dt']
441,muscatine,41.4667,-91.1335,274.28,69,40,"{'speed': 5.14, 'deg': 310}",US,['dt']
442,tulun,54.5611,100.5792,236.6,100,52,"{'speed': 0.7, 'deg': 134, 'gust': 0.7}",RU,['dt']
443,soata,6.3337,-72.6828,296.97,56,96,"{'speed': 1.13, 'deg': 42, 'gust': 2.19}",CO,['dt']
444,puerto aysen,-45.4,-72.7,285.64,99,100,"{'speed': 2.39, 'deg': 330, 'gust': 4.37}",CL,['dt']
445,nizhnesortymskiy,62.4397,71.7603,235.51,100,21,"{'speed': 2.58, 'deg': 42, 'gust': 2.48}",RU,['dt']
446,hiratacho,35.4333,132.8167,287.16,86,100,"{'speed': 7, 'deg': 76, 'gust': 10.36}",JP,['dt']
447,la'ie,21.6477,-157.9253,300.13,79,23,"{'speed': 1.34, 'deg': 131, 'gust': 5.81}",US,['dt']
448,usogorsk,63.4106,48.6872,249.08,99,100,"{'speed': 3.26, 'deg': 148, 'gust': 11.35}",RU,['dt']
449,bodaybo,57.8506,114.1933,241.78,99,100,"{'speed': 0.02, 'deg': 245, 'gust': 0.26}",RU,['dt']
450,nogliki,51.8333,143.1667,253.34,86,100,"{'speed': 5.81, 'deg': 275, 'gust': 12.52}",RU,['dt']
451,sao vicente,-23.9631,-46.3919,299.25,63,100,"{'speed': 3.6, 'deg': 120}",BR,['dt']
452,ca mau,9.1769,105.15,297.28,92,72,"{'speed': 2.53, 'deg': 88, 'gust': 8.5}",VN,['dt']
453,mil'kovo,55.6078,37.7956,263.9,94,100,"{'speed': 4.96, 'deg': 137, 'gust': 10.8}",RU,['dt']
454,ust-tsilma,65.441,52.1498,244.05,98,99,"{'speed': 1.79, 'deg': 146, 'gust': 1.34}",RU,['dt']
455,conceicao do araguaia,-8.2578,-49.2647,305.88,46,96,"{'speed': 0.48, 'deg': 153, 'gust': 2.72}",BR,['dt']
456,hadibu,12.65,54.0333,298.18,71,48,"{'speed': 5.77, 'deg': 32, 'gust': 6.48}",YE,['dt']
457,kavaratti,10.5669,72.642,301.84,73,100,"{'speed': 1.2, 'deg': 151, 'gust': 1.35}",IN,['dt']
458,egilsstadir,65.2653,-14.3948,271.1,100,100,"{'speed': 1.03, 'deg': 160}",IS,['dt']
459,mammoth lakes,37.6485,-118.9721,284.45,24,0,"{'speed': 0.45, 'deg': 202, 'gust': 1.34}",US,['dt']
460,ciudad lazaro cardenas,17.9583,-102.2,302.66,52,100,"{'speed': 2.5, 'deg': 214, 'gust': 1.9}",MX,['dt']
461,kone,-21.0595,164.8658,295.53,77,100,"{'speed': 2.21, 'deg': 85, 'gust': 4.33}",NC,['dt']
462,villa gesell,-37.2639,-56.973,294.39,71,11,"{'speed': 7.13, 'deg': 50, 'gust': 7.01}",AR,['dt']
463,puerto madryn,-42.7692,-65.0385,301.0,24,5,"{'speed': 8.17, 'deg': 35, 'gust': 8.46}",AR,['dt']
464,al muwayh,22.4333,41.7583,291.56,22,32,"{'speed': 5.24, 'deg': 119, 'gust': 9.27}",SA,['dt']
465,novokhopersk,51.0969,41.6252,267.66,68,100,"{'speed': 5.68, 'deg': 120, 'gust': 11.9}",RU,['dt']
466,vipiteno,46.8925,11.4301,274.25,74,100,"{'speed': 0.36, 'deg': 177, 'gust': 2.2}",IT,['dt']
467,el nido,11.1858,119.3956,300.58,77,100,"{'speed': 3.5, 'deg': 40, 'gust': 5.27}",PH,['dt']
468,fortaleza,-3.7227,-38.5247,304.86,66,20,"{'speed': 6.69, 'deg': 90}",BR,['dt']
469,nassau,40.7507,-73.5829,287.96,90,100,"{'speed': 6.17, 'deg': 200}",US,['dt']
470,calingasta,-31.3308,-69.4078,303.4,24,4,"{'speed': 7.94, 'deg': 92, 'gust': 6.86}",AR,['dt']
471,auki,-8.7676,160.7034,297.73,87,86,"{'speed': 1.18, 'deg': 97, 'gust': 0.98}",SB,['dt']
472,paranhos,-23.8928,-55.4311,293.19,97,100,"{'speed': 2.25, 'deg': 38, 'gust': 5.22}",BR,['dt']
473,flin flon,54.7682,-101.865,265.06,93,100,"{'speed': 2.06, 'deg': 170}",CA,['dt']
474,dasuya,31.8183,75.6597,285.9,35,22,"{'speed': 1.11, 'deg': 67, 'gust': 1.07}",IN,['dt']
475,bodo,67.28,14.405,270.17,63,75,"{'speed': 7.72, 'deg': 90}",NO,['dt']
476,gazojak,41.1875,61.4036,273.2,36,89,"{'speed': 5.08, 'deg': 62, 'gust': 8.33}",TM,['dt']
477,peniche,39.3558,-9.3811,291.09,93,1,"{'speed': 4.4, 'deg': 191, 'gust': 5.84}",PT,['dt']
478,saint-philippe,-21.3585,55.7679,299.92,86,100,"{'speed': 5.99, 'deg': 87, 'gust': 6.37}",RE,['dt']
479,tannum sands,-23.9504,151.3693,297.09,73,75,"{'speed': 4.63, 'deg': 130}",AU,['dt']
480,santa maria,-29.6842,-53.8069,299.76,61,75,"{'speed': 3.09, 'deg': 150}",BR,['dt']
481,kotlas,61.2611,46.6556,252.62,92,100,"{'speed': 2.68, 'deg': 128, 'gust': 8.49}",RU,['dt']
482,inyonga,-6.7167,32.0667,293.06,92,100,"{'speed': 1.4, 'deg': 99, 'gust': 1.54}",TZ,['dt']
483,popondetta,-8.7537,148.2534,296.02,95,100,"{'speed': 1.06, 'deg': 196, 'gust': 1.04}",PG,['dt']
484,nouadhibou,20.931,-17.0347,298.14,41,0,"{'speed': 5.14, 'deg': 340}",MR,['dt']
485,boguchany,58.3814,97.4531,239.18,100,35,"{'speed': 0.89, 'deg': 360, 'gust': 0.89}",RU,['dt']
486,haiku-pauwela,20.9219,-156.3051,298.73,76,20,"{'speed': 4.47, 'deg': 70, 'gust': 7.15}",US,['dt']
487,tralee,52.2704,-9.7026,283.24,86,47,"{'speed': 9.83, 'deg': 269, 'gust': 16.65}",IE,['dt']
488,bathsheba,13.2167,-59.5167,302.49,74,40,"{'speed': 9.26, 'deg': 100}",BB,['dt']
489,ambon,-3.6954,128.1814,298.23,94,40,"{'speed': 1.54, 'deg': 360}",ID,['dt']
490,taoudenni,22.6783,-3.9836,294.05,18,100,"{'speed': 7.25, 'deg': 48, 'gust': 13.2}",ML,['dt']
491,cambria,35.5641,-121.0808,294.54,43,100,"{'speed': 0.45, 'deg': 240, 'gust': 1.34}",US,['dt']
492,kirensk,57.7853,108.1119,239.8,99,98,"{'speed': 1.34, 'deg': 177, 'gust': 1.34}",RU,['dt']
493,khash,28.2211,61.2158,285.16,25,0,"{'speed': 1.35, 'deg': 325, 'gust': 1.45}",IR,['dt']
494,tindouf,27.6711,-8.1474,295.4,23,83,"{'speed': 4.12, 'deg': 90}",DZ,['dt']
495,cole harbour,44.6724,-63.4751,280.77,90,95,"{'speed': 1.34, 'deg': 133, 'gust': 3.58}",CA,['dt']
496,firuzabad,28.8438,52.5707,286.55,39,78,"{'speed': 1.06, 'deg': 16, 'gust': 1.04}",IR,['dt']
497,kalevala,65.2,31.1667,259.84,95,100,"{'speed': 3.1, 'deg': 145, 'gust': 7.87}",RU,['dt']
498,dalandzadgad,43.5708,104.425,265.19,64,97,"{'speed': 1.04, 'deg': 193, 'gust': 3.36}",MN,['dt']
499,comodoro rivadavia,-45.8667,-67.5,300.07,26,20,"{'speed': 10.8, 'deg': 300, 'gust': 16.46}",AR,['dt']
500,pitimbu,-7.4706,-34.8086,303.48,59,12,"{'speed': 3.78, 'deg': 107, 'gust': 4.96}",BR,['dt']
501,berdigestyakh,62.0989,126.6992,245.56,91,100,"{'speed': 4.51, 'deg': 290, 'gust': 11.99}",RU,['dt']
502,akobo,7.4344,3.9497,300.12,41,79,"{'speed': 0.36, 'deg': 219, 'gust': 1.45}",NG,['dt']
503,yima,34.7381,111.8839,271.49,98,100,"{'speed': 1.1, 'deg': 103, 'gust': 3.87}",CN,['dt']
504,naracoorte,-36.9579,140.7383,289.38,86,100,"{'speed': 7.88, 'deg': 136, 'gust': 17.84}",AU,['dt']
505,alofi,-19.0595,-169.9187,298.09,88,100,"{'speed': 4.12, 'deg': 50}",NU,['dt']
506,agat village,13.3886,144.6585,300.21,89,100,"{'speed': 2.06, 'deg': 20}",GU,['dt']
507,kamakwie,9.5,-12.2333,299.96,32,100,"{'speed': 1.62, 'deg': 220, 'gust': 1.65}",SL,['dt']
508,la gi,10.6667,107.7833,296.69,88,100,"{'speed': 4.36, 'deg': 49, 'gust': 5.86}",VN,['dt']
509,hilo,19.7297,-155.09,297.73,99,100,"{'speed': 3.09, 'deg': 220}",US,['dt']
510,curvelo,-18.7564,-44.4308,304.91,37,61,"{'speed': 4.98, 'deg': 54, 'gust': 5.47}",BR,['dt']
511,gizo,-8.103,156.8419,300.32,74,22,"{'speed': 2.09, 'deg': 281, 'gust': 2.34}",SB,['dt']
512,raja,8.4596,25.678,301.08,19,90,"{'speed': 1.72, 'deg': 44, 'gust': 1.78}",SS,['dt']
513,olinda,-8.0089,-34.8553,302.0,65,40,"{'speed': 4.63, 'deg': 130}",BR,['dt']
514,pipraich,26.8264,83.53,287.19,36,0,"{'speed': 2.11, 'deg': 298, 'gust': 2.17}",IN,['dt']
515,sokoni,-6.4333,39.55,301.07,78,98,"{'speed': 4.01, 'deg': 54, 'gust': 5.74}",TZ,['dt']
516,sittwe,20.15,92.9,293.56,77,4,"{'speed': 4.78, 'deg': 344, 'gust': 5.61}",MM,['dt']
517,castillos,-34.1667,-53.8333,294.64,64,23,"{'speed': 4.31, 'deg': 83, 'gust': 4.49}",UY,['dt']
518,cidreira,-30.1811,-50.2056,294.17,88,87,"{'speed': 9.2, 'deg': 51, 'gust': 12.63}",BR,['dt']
519,sarkand,45.41,79.9186,265.55,86,100,"{'speed': 0.98, 'deg': 159, 'gust': 1.08}",KZ,['dt']
520,ishigaki,24.3448,124.1572,297.22,83,100,"{'speed': 3.09, 'deg': 140}",JP,['dt']
521,talcahuano,-36.7167,-73.1167,293.97,60,0,"{'speed': 9.26, 'deg': 230}",CL,['dt']
522,pale,43.8161,18.5694,272.01,100,75,"{'speed': 1.03, 'deg': 330}",BA,['dt']
523,hohhot,40.8106,111.6522,271.31,93,40,"{'speed': 1, 'deg': 0}",CN,['dt']
524,sechura,-5.5569,-80.8222,301.09,56,13,"{'speed': 5.88, 'deg': 220, 'gust': 5.85}",PE,['dt']
525,thunder bay,48.4001,-89.3168,270.14,59,75,"{'speed': 6.69, 'deg': 290}",CA,['dt']
526,torghay,49.6339,63.4981,253.21,79,7,"{'speed': 6.16, 'deg': 30, 'gust': 10.11}",KZ,['dt']
527,hastings,50.8552,0.5729,284.7,83,0,"{'speed': 12.78, 'deg': 256, 'gust': 19.1}",GB,['dt']
528,minot,48.2325,-101.2963,270.38,80,75,"{'speed': 2.06, 'deg': 120}",US,['dt']
529,andalgala,-27.5819,-66.3165,300.96,46,22,"{'speed': 4.72, 'deg': 93, 'gust': 5.51}",AR,['dt']
530,ankang,32.68,109.0172,278.76,87,95,"{'speed': 1.17, 'deg': 94, 'gust': 1.85}",CN,['dt']
531,lata,40.1629,-8.3327,289.3,94,28,"{'speed': 1.73, 'deg': 152, 'gust': 1.6}",PT,['dt']
532,berezovyy,51.6667,135.7,249.23,65,10,"{'speed': 3.87, 'deg': 259, 'gust': 6.57}",RU,['dt']
533,chul'man,56.8479,124.9104,242.3,95,100,"{'speed': 4.14, 'deg': 327, 'gust': 11.29}",RU,['dt']
534,mount gambier,-37.8333,140.7667,287.67,87,100,"{'speed': 6.75, 'deg': 129, 'gust': 15.9}",AU,['dt']
535,awjilah,29.1081,21.2869,290.1,51,79,"{'speed': 2.12, 'deg': 310, 'gust': 2.38}",LY,['dt']
536,moussoro,13.6408,16.4901,296.74,20,1,"{'speed': 3.78, 'deg': 10, 'gust': 4.59}",TD,['dt']
537,basco,20.4487,121.9702,299.91,81,40,"{'speed': 8.57, 'deg': 107, 'gust': 8.75}",PH,['dt']
538,pecos,31.4229,-103.4932,283.84,27,0,"{'speed': 0, 'deg': 0}",US,['dt']
539,tomatlan,19.9333,-105.25,307.53,28,34,"{'speed': 1.71, 'deg': 230, 'gust': 1.06}",MX,['dt']
540,astrakhan,46.3497,48.0408,269.08,63,100,"{'speed': 7, 'deg': 70}",RU,['dt']
541,ornskoldsvik,63.2909,18.7153,266.68,93,100,"{'speed': 1.03, 'deg': 0}",SE,['dt']
542,isla vista,34.4133,-119.861,297.23,30,0,"{'speed': 0.89, 'deg': 179, 'gust': 1.34}",US,['dt']
543,cacoal,-11.4386,-61.4472,306.12,51,92,"{'speed': 1.82, 'deg': 85, 'gust': 2.41}",BR,['dt']
544,mangrol,21.1167,70.1167,295.7,42,10,"{'speed': 4.72, 'deg': 42, 'gust': 5.97}",IN,['dt']
545,bati,11.1833,40.0167,291.03,46,3,"{'speed': 1.62, 'deg': 162, 'gust': 2.16}",ET,['dt']
546,khovd,48.0056,91.6419,256.42,88,33,"{'speed': 0.96, 'deg': 35, 'gust': 0.97}",MN,['dt']
547,necochea,-38.5473,-58.7368,296.95,43,0,"{'speed': 5.63, 'deg': 131, 'gust': 4.88}",AR,['dt']
548,lloydminster,53.2835,-110.0016,267.27,86,75,"{'speed': 3.09, 'deg': 210}",CA,['dt']
549,souillac,-20.5167,57.5167,299.36,78,75,"{'speed': 4.12, 'deg': 110}",MU,['dt']
550,kokkola,63.8385,23.1307,263.67,90,100,"{'speed': 2.57, 'deg': 140}",FI,['dt']
551,challapata,-18.9,-66.7667,285.17,69,100,"{'speed': 1.12, 'deg': 136, 'gust': 4.08}",BO,['dt']
552,rikaze,29.25,88.8833,272.23,40,0,"{'speed': 1.55, 'deg': 94, 'gust': 1.63}",CN,['dt']
553,trikala,39.5553,21.7675,281.27,77,100,"{'speed': 1.31, 'deg': 296, 'gust': 1.46}",GR,['dt']
554,qui nhon,13.7667,109.2333,295.87,85,98,"{'speed': 1.92, 'deg': 261, 'gust': 1.82}",VN,['dt']
555,matabhanga,26.3333,89.2167,290.43,52,0,"{'speed': 2.01, 'deg': 353, 'gust': 2.02}",IN,['dt']
556,port isabel,26.0734,-97.2086,290.39,29,0,"{'speed': 10.29, 'deg': 360, 'gust': 14.92}",US,['dt']
557,monroe,43.1501,-77.6831,280.2,83,100,"{'speed': 3.6, 'deg': 270}",US,['dt']
558,dehloran,32.6941,47.2679,292.35,38,100,"{'speed': 1.29, 'deg': 13, 'gust': 1.36}",IR,['dt']
559,mirnyy,62.5353,113.9611,243.69,96,100,"{'speed': 3.07, 'deg': 261, 'gust': 7.83}",RU,['dt']
560,concordia,-31.393,-58.0209,300.25,50,7,"{'speed': 5.36, 'deg': 180}",AR,['dt']
561,duobao,30.67,112.6895,277.16,81,100,"{'speed': 10.14, 'deg': 352, 'gust': 15.31}",CN,['dt']
562,datong,40.0936,113.2914,268.85,94,100,"{'speed': 2.34, 'deg': 146, 'gust': 3.45}",CN,['dt']
563,santa terezinha,-29.9002,-50.0904,293.91,91,99,"{'speed': 8.36, 'deg': 49, 'gust': 11.26}",BR,['dt']
564,macusani,-14.0833,-70.4333,282.85,68,91,"{'speed': 4.56, 'deg': 8, 'gust': 3.94}",PE,['dt']
565,bizerte,37.2744,9.8739,290.15,77,20,"{'speed': 4.63, 'deg': 260}",TN,['dt']
566,elmadag,39.9208,33.2308,277.22,82,100,"{'speed': 1.73, 'deg': 86, 'gust': 2.01}",TR,['dt']
567,sarangani,5.4033,125.4636,301.39,75,27,"{'speed': 5.98, 'deg': 43, 'gust': 6.59}",PH,['dt']
568,taksimo,56.3444,114.8794,240.58,90,49,"{'speed': 0.79, 'deg': 241, 'gust': 0.94}",RU,['dt']
569,nguruka,-5.1092,31.0419,293.24,97,100,"{'speed': 0.45, 'deg': 225, 'gust': 0.91}",TZ,['dt']
570,kamen'-rybolov,44.7481,132.0403,257.34,64,3,"{'speed': 1.06, 'deg': 316, 'gust': 2.95}",RU,['dt']
571,le vauclin,14.5452,-60.8388,303.18,70,75,"{'speed': 8.23, 'deg': 120}",MQ,['dt']
572,matipo,-20.2839,-42.3411,298.04,77,55,"{'speed': 2.28, 'deg': 54, 'gust': 3.1}",BR,['dt']
573,boende,-0.2167,20.8667,296.58,91,37,"{'speed': 0.8, 'deg': 137, 'gust': 0.82}",CD,['dt']
574,jalai nur,49.45,117.7,242.28,96,5,"{'speed': 1.87, 'deg': 279, 'gust': 1.76}",CN,['dt']
575,bereznik,62.8551,42.7072,257.15,84,100,"{'speed': 5.15, 'deg': 140, 'gust': 14.34}",RU,['dt']
576,debark',13.1561,37.8981,285.63,45,7,"{'speed': 0.2, 'deg': 3, 'gust': 1.46}",ET,['dt']
577,kargil,34.5667,76.1,267.15,36,97,"{'speed': 0.9, 'deg': 115, 'gust': 1.4}",IN,['dt']
578,klungkung,-8.5333,115.4,299.53,92,100,"{'speed': 1.87, 'deg': 270, 'gust': 3.35}",ID,['dt']
579,san jose del guaviare,2.5729,-72.6459,302.74,71,48,"{'speed': 1.55, 'deg': 27, 'gust': 2.28}",CO,['dt']
580,mili,6.0815,171.735,300.95,83,99,"{'speed': 7.53, 'deg': 73, 'gust': 8.71}",MH,['dt']
581,riviere-du-loup,47.8304,-69.5342,275.3,100,100,"{'speed': 1.54, 'deg': 130}",CA,['dt']
582,seremban,2.7297,101.9381,299.38,96,100,"{'speed': 0.94, 'deg': 50, 'gust': 0.91}",MY,['dt']
583,rurrenabaque,-14.4413,-67.5278,307.83,44,100,"{'speed': 2.25, 'deg': 43, 'gust': 4.81}",BO,['dt']
584,zouerate,22.7187,-12.4521,296.49,22,86,"{'speed': 5.04, 'deg': 74, 'gust': 8.87}",MR,['dt']
